[
  {
    "id": "SB-001-1",
    "name": "SmartBin Taman Kota",
    "address": "Taman Kota, Jalan Melati, Jakarta Selatan",
    "lat": -6.25672,
    "lng": 106.81210,
    "type": "Organic",
    "capacity": 32,
    "distance": 0,
    "lastUpdated": "2025-03-02T10:30:00Z",
    "photo": "/assets/img/bin/smartbin1.jpg"
  },
  {
    "id": "SB-001-2",
    "name": "SmartBin Taman Kota",
    "address": "Taman Kota, Jalan Melati, Jakarta Selatan",
    "lat": -6.25672,
    "lng": 106.81210,
    "type": "Plastic",
    "capacity": 67,
    "distance": 0,
    "lastUpdated": "2025-03-02T10:30:00Z",
    "photo": "/assets/img/bin/smartbin1.jpg"
  },
  {
    "id": "SB-001-3",
    "name": "SmartBin Taman Kota",
    "address": "Taman Kota, Jalan Melati, Jakarta Selatan",
    "lat": -6.25672,
    "lng": 106.81210,
    "type": "Paper",
    "capacity": 45,
    "distance": 0,
    "lastUpdated": "2025-03-02T10:30:00Z",
    "photo": "/assets/img/bin/smartbin1.jpg"
  },
  {
    "id": "SB-002-1",
    "name": "SmartBin Halte MRT Cipete",
    "address": "Halte MRT Cipete Raya",
    "lat": -6.27132,
    "lng": 106.80055,
    "type": "Plastic",
    "capacity": 76,
    "distance": 0,
    "lastUpdated": "2025-03-02T10:45:00Z",
    "photo": "/assets/img/bin/smartbin2.jpg"
  },
  {
    "id": "SB-002-2",
    "name": "SmartBin Halte MRT Cipete",
    "address": "Halte MRT Cipete Raya",
    "lat": -6.27132,
    "lng": 106.80055,
    "type": "Metal",
    "capacity": 23,
    "distance": 0,
    "lastUpdated": "2025-03-02T10:45:00Z",
    "photo": "/assets/img/bin/smartbin2.jpg"
  },
  {
    "id": "SB-003-1",
    "name": "SmartBin Mall Entrance",
    "address": "Pintu Utama Pacific Mall",
    "lat": -6.24581,
    "lng": 106.81391,
    "type": "Plastic",
    "capacity": 94,
    "distance": 0,
    "lastUpdated": "2025-03-02T10:50:00Z",
    "photo": "/assets/img/bin/smartbin3.jpg"
  },
  {
    "id": "SB-003-2",
    "name": "SmartBin Mall Entrance",
    "address": "Pintu Utama Pacific Mall",
    "lat": -6.24581,
    "lng": 106.81391,
    "type": "Paper",
    "capacity": 68,
    "distance": 0,
    "lastUpdated": "2025-03-02T10:50:00Z",
    "photo": "/assets/img/bin/smartbin3.jpg"
  },
  {
    "id": "SB-004-1",
    "name": "SmartBin Binus Anggrek",
    "address": "Universitas Binas Nusantara, Kemanggisan, Jakarta Barat",
    "lat": -6.25918,
    "lng": 106.82501,
    "type": "Organic",
    "capacity": 15,
    "distance": 0,
    "lastUpdated": "2025-03-02T11:00:00Z",
    "photo": "/assets/img/bin/smartbin5.jpg"
  },
  {
    "id": "SB-004-2",
    "name": "SmartBin Binus Anggrek ",
    "address": "Universitas Binas Nusantara, Kemanggisan, Jakarta Barat",
    "lat": -6.25918,
    "lng": 106.82501,
    "type": "Paper",
    "capacity": 15,
    "distance": 0,
    "lastUpdated": "2025-03-02T11:00:00Z",
    "photo": "/assets/img/bin/smartbin5.jpg"
  },
  {
    "id": "SB-004-3",
    "name": "SmartBin Binus Anggrek",
    "address": "Universitas Binas Nusantara, Kemanggisan, Jakarta Barat",
    "lat": -6.25918,
    "lng": 106.82501,
    "type": "Plastic",
    "capacity": 15,
    "distance": 0,
    "lastUpdated": "2025-03-02T11:00:00Z",
    "photo": "/assets/img/bin/smartbin5.jpg"
  },
  {
    "id": "SB-005-1",
    "name": "SmartBin Stasiun Sudirman",
    "address": "Stasiun Sudirman, Gate Utara",
    "lat": -6.20281,
    "lng": 106.82255,
    "type": "Plastic",
    "capacity": 85,
    "distance": 0,
    "lastUpdated": "2025-03-02T11:10:00Z",
    "photo": "/assets/img/bin/smartbin4.jpg"
  },
  {
    "id": "SB-005-2",
    "name": "SmartBin Stasiun Sudirman",
    "address": "Stasiun Sudirman, Gate Utara",
    "lat": -6.20281,
    "lng": 106.82255,
    "type": "Paper",
    "capacity": 64,
    "distance": 0,
    "lastUpdated": "2025-03-02T11:10:00Z",
    "photo": "/assets/img/bin/smartbin4.jpg"
  },
  {
    "id": "SB-005-3",
    "name": "SmartBin Stasiun Sudirman",
    "address": "Stasiun Sudirman, Gate Utara",
    "lat": -6.20281,
    "lng": 106.82255,
    "type": "Metal",
    "capacity": 58,
    "distance": 0,
    "lastUpdated": "2025-03-02T11:10:00Z",
    "photo": "/assets/img/bin/smartbin4.jpg"
  }
]
